City ID,City,Country,Lat,Lng,Temperature,Humidity,Clouds,Wind Speed
2022572,Khatanga,RU,71.9667,102.5,-6.02,91,16,5.28
2017155,Saskylakh,RU,71.9167,114.0833,-4.9,92,100,2.06
1015776,Bredasdorp,ZA,-34.5322,20.0403,15.62,75,100,6.15
110690,Abhā,SA,18.2164,42.5053,20.14,46,0,0.0
2112309,Katsuura,JP,35.1333,140.3,18.17,72,100,2.97
3418910,Upernavik,GL,72.7868,-56.1549,-8.8,90,30,2.82
4311963,Valley Station,US,38.1112,-85.8702,24.07,80,11,1.91
2015306,Tiksi,RU,71.6872,128.8694,-4.3,83,18,3.59
5983720,Iqaluit,CA,63.7506,-68.5145,-1.15,100,100,8.23
4944903,Nantucket,US,41.2835,-70.0995,8.82,83,0,11.32
2160735,Lakes Entrance,AU,-37.8811,147.981,13.98,66,100,1.66
3874787,Punta Arenas,CL,-53.15,-70.9167,6.06,70,75,3.6
3899695,Ancud,CL,-41.8697,-73.8203,8.53,87,100,2.36
6201424,Mataura,NZ,-46.1927,168.8643,14.15,61,11,1.54
3833367,Ushuaia,AR,-54.8,-68.3,5.81,70,0,1.03
2163355,Hobart,AU,-42.8794,147.3294,11.79,77,0,4.63
5866583,Saint Paul Harbor,US,57.79,-152.4072,9.73,32,0,8.23
2189343,Kaeo,NZ,-35.1,173.7833,18.51,64,0,4.05
3406318,Barra do Corda,BR,-5.5,-45.25,22.47,92,100,1.58
3883457,Lebu,CL,-37.6167,-73.65,10.92,77,100,2.85
3374083,Bathsheba,BB,13.2167,-59.5167,27.34,74,40,8.23
5122534,Jamestown,US,42.097,-79.2353,15.14,67,73,2.26
5924351,Clyde River,CA,70.4692,-68.5914,-9.96,74,0,2.59
624785,Navahrudak,BY,53.6,25.8333,5.62,72,100,2.78
3840300,Presidencia Roque Sáenz Peña,AR,-26.7852,-60.4388,18.84,73,100,1.53
2123814,Leningradskiy,RU,69.3833,178.4167,1.61,95,13,2.4
4020109,Atuona,PF,-9.8,-139.0333,26.05,68,8,8.9
3372745,Rabo de Peixe,PT,37.8,-25.5833,18.49,73,75,2.57
1308204,Myanaung,MM,18.2833,95.3167,27.75,68,93,3.49
3421719,Narsaq,GL,60.9167,-46.05,6.12,87,100,2.03
5880054,Barrow,US,71.2906,-156.7887,-3.99,74,100,5.66
3156980,Florø,NO,61.5996,5.0328,8.98,87,100,8.75
2075265,Busselton,AU,-33.65,115.3333,17.34,75,100,1.61
2018735,Nyurba,RU,63.2842,118.3319,5.21,69,85,2.26
5106841,Albany,US,42.6001,-73.9662,16.53,49,0,2.72
5955902,Fort Nelson,CA,58.8053,-122.7002,11.5,55,76,1.74
2258261,Dolisie,CG,-4.1997,12.6739,22.89,98,100,1.51
5563839,Fortuna,US,40.5982,-124.1573,11.95,66,75,5.66
548622,Kinel’-Cherkassy,RU,53.4706,51.4743,5.45,96,100,6.54
3670218,San Andrés,CO,12.5847,-81.7006,28.01,83,20,3.09
5525584,Lubbock,US,33.6001,-101.8338,29.04,54,75,9.77
2119626,Yagodnoye,RU,62.55,149.6667,2.04,100,100,3.01
1863997,Fukuechō,JP,32.6881,128.8419,19.18,93,100,5.0
4030556,Rikitea,PF,-23.1203,-134.9692,24.9,70,4,6.72
1633070,Palembang,ID,-2.9167,104.7458,24.05,94,75,1.03
2134814,Sola,VU,-13.8833,167.55,27.28,81,73,11.49
2108502,Honiara,SB,-9.4333,159.95,29.75,74,100,2.78
2206939,Bluff,NZ,-46.6,168.3333,14.33,72,52,6.01
1637001,Biak,ID,-0.9131,122.8766,25.6,85,100,1.44
199604,Chepareria,KE,1.3077,35.2039,16.08,77,70,2.1
3403566,Campo Maior,BR,-4.8278,-42.1686,23.03,89,100,1.82
4035715,Avarua,CK,-21.2078,-159.775,27.03,83,75,2.06
5367788,Lompoc,US,34.6391,-120.4579,13.44,56,0,8.75
3395458,Maragogi,BR,-9.0122,-35.2225,24.3,85,68,1.71
2063036,Port Lincoln,AU,-34.7333,135.8667,16.73,61,0,3.58
3424607,Tasiilaq,GL,65.6145,-37.6368,-3.91,91,100,5.61
5557293,Sitka,US,57.0531,-135.33,5.94,75,100,3.09
2034221,Wangqing,CN,43.3218,129.7634,16.53,38,100,2.23
2070998,Geraldton,AU,-28.7667,114.6,17.23,88,75,2.06
4036284,Alofi,NU,-19.0595,-169.9187,24.94,94,75,5.66
3662927,Pauini,BR,-7.7136,-66.9764,24.39,91,100,0.48
2071860,Esperance,AU,-33.8667,121.9,19.53,34,70,6.54
286621,Salalah,OM,17.0151,54.0924,26.05,65,0,0.51
286987,Nizwá,OM,22.9333,57.5333,26.54,29,0,1.05
5830062,Laramie,US,41.3114,-105.5911,14.27,29,0,9.77
934649,Cap Malheureux,MU,-19.9842,57.6142,24.15,80,34,5.81
1733502,Ranau,MY,5.9538,116.6641,26.4,78,88,0.69
935215,Saint-Philippe,RE,-21.3585,55.7679,21.77,78,5,2.14
2173911,Broken Hill,AU,-31.95,141.4333,12.6,96,100,6.15
1513990,Gazli,UZ,40.1333,63.45,18.04,34,46,4.42
3728097,Les Cayes,HT,18.2,-73.75,24.76,85,2,1.87
3985710,Cabo San Lucas,MX,22.8909,-109.9124,32.03,23,0,4.12
5848280,Kapaa,US,22.0752,-159.319,25.71,74,20,6.69
662920,Viişoara,RO,46.55,23.9167,7.98,86,96,0.5
5962442,Goderich,CA,43.7501,-81.7165,12.94,69,5,5.8
3831208,Qaanaaq,GL,77.484,-69.3632,-10.07,73,0,2.74
2110227,Butaritari,KI,3.0707,172.7902,27.37,73,13,6.82
2012349,Krasnyy Chikoy,RU,50.3643,108.7512,2.69,41,100,6.32
2136825,Isangel,VU,-19.55,169.2667,29.06,58,40,3.09
3466704,Castro,BR,-24.7911,-50.0119,15.22,89,100,0.85
2122090,Pevek,RU,69.7008,170.3133,-1.25,76,24,3.73
1513087,Nurota,UZ,40.5614,65.6886,15.8,41,1,3.8
1266397,Kodīnar,IN,20.7903,70.7031,27.12,79,100,3.09
2012593,Zeya,RU,53.75,127.2667,9.44,37,100,1.59
5282297,Bethel,US,41.3712,-73.414,13.6,35,4,3.28
3354077,Opuwo,NA,-18.0607,13.84,16.94,34,0,1.93
2519401,Ciudad Real,ES,39.0,-4.0,17.29,58,10,0.89
1444363,Nuristan,AF,35.3,70.8333,4.39,57,1,3.56
4013679,Coahuayana Viejo,MX,18.7333,-103.6833,26.44,70,100,1.9
4500546,Atlantic City,US,39.3643,-74.4229,13.02,52,100,4.63
2724231,Avesta,SE,60.1455,16.1679,9.51,95,90,5.37
5909514,Brooks,CA,50.5834,-111.8851,8.91,63,100,1.98
2511440,San Bartolomé de Tirajana,ES,27.9248,-15.5733,16.29,82,20,2.57
3653609,Paján,EC,-1.5667,-80.4167,22.44,92,100,0.61
3430863,Mar del Plata,AR,-38.0023,-57.5575,12.18,77,0,4.92
3372964,Lagoa,PT,39.05,-27.9833,14.99,74,100,8.8
5767918,Pierre,US,44.3683,-100.351,18.51,48,0,2.68
1489853,Tazovsky,RU,67.4667,78.7,-5.93,89,100,2.9
5546220,Saint George,US,37.1041,-113.5841,21.36,9,0,5.14
2209055,Waddān,LY,29.1614,16.139,18.02,55,34,7.09
3355672,Lüderitz,NA,-26.6481,15.1594,13.85,71,11,5.96
1259385,Port Blair,IN,11.6667,92.75,28.97,77,100,4.6
3423146,Ilulissat,GL,69.2167,-51.1,-6.99,63,13,0.0
1271213,Giddalūr,IN,15.35,78.9167,25.57,78,100,7.54
4032243,Vaini,TO,-21.2,-175.2,27.09,65,20,3.09
515155,Opochka,RU,56.7105,28.6617,4.27,77,7,2.2
3430443,Necochea,AR,-38.5473,-58.7368,9.67,75,20,2.4
1702348,Mambajao,PH,9.2504,124.7156,28.1,77,79,1.58
935214,Saint-Pierre,RE,-21.3393,55.4781,21.75,64,0,3.09
2729907,Longyearbyen,SJ,78.2186,15.6401,-8.09,62,20,2.57
3374210,São Filipe,CV,14.8961,-24.4956,22.42,82,6,3.15
3393115,Paracuru,BR,-3.41,-39.0306,25.06,82,100,1.53
3652764,Puerto Ayora,EC,-0.7393,-90.3518,22.53,95,22,1.79
1819729,Hong Kong,HK,22.2855,114.1577,25.02,96,100,4.47
3366880,Hermanus,ZA,-34.4187,19.2345,16.0,81,100,6.71
3471451,Arraial do Cabo,BR,-22.9661,-42.0278,23.13,77,98,3.98
5969025,Haines Junction,CA,60.7522,-137.5108,2.92,86,100,1.84
2381334,Atar,MR,20.5169,-13.0499,30.98,20,5,4.36
934322,Mahébourg,MU,-20.4081,57.7,22.16,94,20,2.06
363656,Yambio,SS,4.5721,28.3955,20.12,98,100,1.41
1282256,Hithadhoo,MV,-0.6,73.0833,28.93,74,91,6.89
2019935,Mnogovershinnyy,RU,53.9353,139.9242,10.35,73,45,1.15
546105,Nikolskoye,RU,59.7035,30.7861,7.37,76,39,2.39
3996893,Caborca,MX,30.5838,-111.101,30.35,10,0,7.2
3855075,General Pico,AR,-35.6566,-63.7568,14.14,73,29,3.19
2074865,Carnarvon,AU,-24.8667,113.6333,23.04,68,96,3.09
3608828,Iralaya,HN,15.0,-83.2333,25.91,83,0,3.94
6355222,Yulara,AU,-25.2406,130.9889,17.91,34,93,5.14
1497210,Novoagansk,RU,61.9449,76.6625,10.34,74,100,4.04
172515,Abu Samrah,SY,35.3029,37.1841,15.32,54,0,2.86
5044290,Saint Anthony,US,45.0205,-93.218,24.08,30,0,3.6
2121385,Severo-Kuril'sk,RU,50.6789,156.125,2.35,99,100,3.53
110690,Faya,SA,18.3851,42.4509,20.29,57,60,1.69
1525988,Ayagoz,KZ,47.9714,80.4392,11.89,43,100,4.2
2360541,Gayéri,BF,12.6497,0.4931,31.47,40,31,5.2
2121197,Sinegor'ye,RU,62.0788,150.477,2.8,100,100,3.34
286245,Sur,OM,22.5667,59.5289,27.84,50,0,0.64
3979430,Primo Tapia,MX,32.22,-116.9172,17.87,51,100,8.52
136702,Dehlorān,IR,32.6941,47.2679,23.89,20,0,1.28
1649150,Bengkulu,ID,-3.8004,102.2655,25.45,84,100,1.45
935255,Sainte-Marie,RE,-20.8968,55.5496,21.8,80,0,2.57
1791464,Wenling,CN,28.3669,121.36,19.1,94,100,4.1
2512186,Puerto del Rosario,ES,28.5004,-13.8627,21.86,78,0,1.54
1591474,Bac Lieu,VN,9.285,105.7244,29.58,74,100,2.65
5855927,Hilo,US,19.7297,-155.09,25.2,75,100,6.69
3369157,Cape Town,ZA,-33.9258,18.4232,13.65,95,83,0.89
2094342,Kavieng,PG,-2.5744,150.7967,29.51,68,100,6.84
2128867,Noshiro,JP,40.2039,140.0242,20.61,42,26,1.67
64814,Bandarbeyla,SO,9.4942,50.8122,27.51,81,9,1.69
2409914,Bonthe,SL,7.5264,-12.505,26.7,88,100,2.25
2377457,Nouadhibou,MR,20.931,-17.0347,19.13,84,75,5.33
3929493,San Juan Bautista,PE,-14.0108,-75.7358,18.55,73,0,1.09
3839307,Rawson,AR,-43.3002,-65.1023,10.98,72,0,3.66
2654970,Brae,GB,60.3964,-1.353,8.69,88,100,8.7
3576994,Cockburn Town,TC,21.4612,-71.1419,26.57,79,11,2.8
2315026,Kasongo-Lunda,CD,-6.4667,16.8167,22.08,93,38,1.0
964432,Port Alfred,ZA,-33.5906,26.891,18.43,82,12,4.47
878006,Mbekenyera,TZ,-10.0,38.9833,18.41,79,0,1.55
3372707,Ribeira Grande,PT,38.5167,-28.7,16.04,86,100,10.0
2281120,Tabou,CI,4.423,-7.3528,26.25,86,100,2.5
2126123,Chokurdakh,RU,70.6333,147.9167,-9.09,90,97,3.85
2208248,Kaitangata,NZ,-46.2817,169.8464,12.91,61,18,3.67
3893726,Constitución,CL,-35.3333,-72.4167,13.71,72,100,3.97
5364271,Laguna,US,38.421,-121.4238,15.51,42,75,4.63
3929611,San Jerónimo,PE,-11.9472,-75.2829,10.62,77,88,1.17
2178753,Kirakira,SB,-10.4544,161.9205,29.3,75,100,3.26
3663529,Manacapuru,BR,-3.2997,-60.6206,26.26,80,91,1.87
964420,Port Elizabeth,ZA,-33.918,25.5701,16.84,91,0,3.13
2334652,Keffi,NG,8.8486,7.8736,24.53,80,23,0.55
2181625,Te Anau,NZ,-45.4167,167.7167,10.71,63,13,0.62
1863495,Gushikawa,JP,26.3544,127.8686,25.96,91,100,4.12
1861280,Itoman,JP,26.1247,127.6694,27.08,86,75,6.17
3374333,Praia,CV,14.9215,-23.5087,22.3,78,0,6.17
3450206,Santa Helena de Goiás,BR,-17.8136,-50.5969,21.79,54,77,1.01
3466165,Cidreira,BR,-30.1811,-50.2056,17.56,95,100,0.58
6170031,Tuktoyaktuk,CA,69.4541,-133.0374,-1.0,80,100,7.2
1106677,Bambous Virieux,MU,-20.3428,57.7575,22.14,94,20,2.06
6535469,Marmora,IT,44.4583,7.094,11.7,84,64,1.64
187896,Mandera,KE,3.9366,41.867,26.39,71,56,4.43
2126710,Beringovskiy,RU,63.05,179.3167,3.22,91,100,3.67
2409215,Mattru,SL,7.6244,-11.8332,25.22,93,83,0.06
2138555,Poum,NC,-20.2333,164.0167,25.73,72,22,8.59
340358,Dabat,ET,12.9842,37.765,16.77,42,3,2.07
5917275,Carman,CA,49.4992,-98.0016,16.21,44,0,4.43
1307741,Myitkyina,MM,25.3833,97.4,22.21,99,100,0.86
3404558,Cabedelo,BR,-6.9811,-34.8339,24.37,84,43,4.86
893485,Chiredzi,ZW,-21.05,31.6667,16.07,88,0,1.08
4299276,Louisville,US,38.2542,-85.7594,24.95,67,40,3.6
245669,Adré,TD,13.4667,22.2,27.28,10,71,3.04
4031742,Egvekinot,RU,66.3167,-179.1667,-0.32,100,99,1.52
2063056,Port Augusta,AU,-32.5,137.7667,18.24,61,31,3.22
3520994,Puerto Escondido,MX,15.85,-97.0667,28.46,65,75,2.06
478050,Ust'-Kulom,RU,61.6864,53.6902,6.09,82,99,3.21
6111867,Port Hawkesbury,CA,45.6169,-61.3485,4.34,52,6,2.68
2036892,Hohhot,CN,40.8106,111.6522,8.44,17,89,1.97
1519422,Semey,KZ,50.4111,80.2275,4.12,48,0,3.0
704277,Krasne,UA,49.9145,24.6134,7.69,74,100,1.66
5793822,Enumclaw,US,47.2043,-121.9915,13.43,47,100,0.89
4513583,Hamilton,US,39.1834,-84.5333,24.81,70,75,5.14
3671437,Caucayá,CO,-0.1934,-74.7819,22.91,97,34,0.97
1805833,Jiexiu,CN,37.0244,111.9125,17.09,70,100,4.17
5808079,Redmond,US,47.674,-122.1215,14.83,48,100,2.24
3391889,Pitimbu,BR,-7.4706,-34.8086,24.33,82,95,4.34
4726521,San Patricio,US,28.017,-97.5169,27.58,74,0,7.78
3467687,Campos Belos,BR,-13.0367,-46.7717,19.94,46,1,1.22
2338660,Yaan,NG,7.3833,8.5667,24.44,83,96,1.95
236901,Ouadda,CF,8.0777,22.4007,21.01,87,100,1.73
3172931,Montefiascone,IT,42.5393,12.0362,12.18,87,2,1.46
2171099,Codrington,AU,-38.2667,141.9667,17.39,61,99,2.03
509104,Platonovka,RU,52.7106,41.952,1.64,99,100,4.46
625721,Lyuban',BY,52.7985,28.0048,6.02,71,7,1.39
1835848,Seoul,KR,37.5683,126.9778,21.66,34,100,2.08
3416888,Grindavik,IS,63.8424,-22.4338,3.26,75,75,7.72
6185377,Yellowknife,CA,62.456,-114.3525,2.2,84,100,2.16
5989403,Kapuskasing,CA,49.4169,-82.4331,18.05,94,75,2.57
1855540,Naze,JP,28.3667,129.4833,22.8,65,100,1.15
3452711,Porto Nacional,BR,-10.7081,-48.4172,24.0,66,6,0.83
1709007,Kawit,PH,14.45,120.9,31.39,62,75,2.57
1807681,Huainan,CN,32.6264,116.9969,19.18,71,100,3.94
1490256,Talnakh,RU,69.4865,88.3972,-5.44,84,36,1.5
5847411,Kahului,US,20.8947,-156.47,27.75,61,40,10.8
1264976,Leh,IN,34.1667,77.5833,8.15,43,4,1.86
1788852,Xining,CN,36.6167,101.7667,11.64,61,27,0.94
3438106,Fram,PY,-26.9833,-55.8833,16.33,96,2,1.24
104515,Makkah al Mukarramah,SA,21.4267,39.8261,29.39,20,0,2.16
491019,Sol'-Iletsk,RU,51.1631,54.9918,5.05,80,100,8.83
2018553,Ol'ga,RU,43.7444,135.2892,16.66,27,100,4.7
2522325,Agüimes,ES,27.9054,-15.4461,20.35,83,20,2.57
1714733,Dingle,PH,10.9995,122.6711,29.96,64,100,2.48
2270385,Camacha,PT,33.0833,-16.3333,16.68,88,40,5.14
1337607,Kudahuvadhoo,MV,2.6708,72.8944,29.11,76,99,7.88
5870133,Nome,US,64.5011,-165.4064,-0.96,100,100,4.63
3984997,San Quintín,MX,30.4833,-115.95,16.78,64,100,11.24
1337612,Dhidhdhoo,MV,6.8833,73.1,28.89,75,100,7.17
3466980,Caravelas,BR,-17.7125,-39.2481,22.03,82,85,1.52
4034551,Faanui,PF,-16.4833,-151.75,28.12,74,10,7.33
2637762,Skegness,GB,53.1436,0.3363,13.14,74,100,7.42
1267390,Kavaratti,IN,10.5669,72.642,29.59,67,100,7.78
1253628,Ginda,IN,30.6945,78.4932,17.73,42,5,1.92
2013986,Ust'-Barguzin,RU,53.45,108.9833,1.74,59,24,2.12
1722579,Bunog,PH,9.1403,117.7817,29.19,72,100,1.13
72181,Marzuq,YE,14.4,46.4667,22.61,34,3,1.92
3445026,Vila Velha,BR,-20.3297,-40.2925,20.97,94,75,1.54
1214488,Meulaboh,ID,4.1363,96.1285,26.03,89,93,3.1
1514831,Shŭrob,TJ,40.0491,70.5489,15.34,68,12,2.91
2155415,New Norfolk,AU,-42.7826,147.0587,12.22,54,100,1.08
2286304,Korhogo,CI,9.45,-5.6333,25.68,67,20,2.1
1528998,Yumen,CN,40.2833,97.2,19.85,15,14,4.0
2160517,Launceston,AU,-41.45,147.1667,14.6,77,75,2.06
909887,Luangwa,ZM,-15.6167,30.4167,18.61,74,0,1.4
1213855,Sibolga,ID,1.7427,98.7792,26.49,86,100,1.34
2127060,Arman',RU,59.7,150.1667,2.79,96,100,3.81
1006984,East London,ZA,-33.0153,27.9116,20.69,39,90,3.18
6111862,Port Hardy,CA,50.6996,-127.4199,11.1,71,75,3.09
3443061,Chui,UY,-33.6971,-53.4616,15.31,92,100,3.19
532092,Makhalino,RU,53.0854,46.2211,1.5,97,100,5.66
1486321,Yar-Sale,RU,66.8333,70.8333,-5.32,99,100,3.44
64013,Bosaso,SO,11.2842,49.1816,28.15,70,4,2.07
1056899,Sambava,MG,-14.2667,50.1667,22.31,93,45,1.3
4333811,Morgan City,US,29.6994,-91.2068,25.42,65,0,3.76
214575,Kampene,CD,-3.6,26.6667,20.24,91,20,0.69
2456917,Goundam,ML,16.4145,-3.6708,27.12,7,0,1.93
4608185,Bradley,US,35.1501,-84.8666,20.02,78,0,0.0
895953,Zambezi,ZM,-13.5432,23.1047,15.25,69,4,2.26
1516589,Zhezkazgan,KZ,47.8043,67.7144,10.39,80,8,3.61
3109527,Santoña,ES,43.4439,-3.4576,14.5,80,1,1.37
3412093,Vestmannaeyjar,IS,63.4427,-20.2734,6.01,73,100,4.55
1684019,Talavera,PH,15.6167,120.9333,32.38,45,15,2.74
1259064,Raebareli,IN,26.2167,81.2333,31.39,42,0,3.91
902620,Mwinilunga,ZM,-11.7358,24.4293,15.12,76,6,1.66
2862118,Norden,DE,53.6,7.2,10.96,95,100,4.31
1735106,George Town,MY,5.4112,100.3354,24.96,94,40,2.57
2276492,Harper,LR,4.375,-7.7169,26.39,84,100,2.33
6089245,Norman Wells,CA,65.282,-126.8329,7.8,48,100,2.75
2460954,Araouane,ML,18.9048,-3.5265,28.09,8,0,4.98
1293625,Dawei,MM,14.0833,98.2,26.22,87,100,0.92
3430545,Morón,AR,-34.6534,-58.6198,14.47,83,5,1.68
5417041,Cimarron Hills,US,38.8586,-104.6989,20.79,25,0,8.75
1795632,Shenjiamen,CN,29.9576,122.298,17.3,97,100,4.38
4034188,Moerai,PF,-22.4333,-151.3333,26.67,76,10,3.1
2180815,Tuatapere,NZ,-46.1333,167.6833,13.54,57,81,1.37
1798632,Pingyin,CN,36.2831,116.4453,18.01,64,100,4.28
1283334,Ilām,NP,26.9167,87.9167,20.85,81,41,0.67
1510689,Baykit,RU,61.67,96.37,6.03,70,20,1.67
797725,Kara-Tyube,RU,44.6336,45.4369,10.36,60,100,3.72
3450083,Santa Maria,BR,-29.6842,-53.8069,15.24,98,97,1.38
2090021,Namatanai,PG,-3.6667,152.4333,29.93,65,83,4.39
2112802,Hasaki,JP,35.7333,140.8333,19.22,74,100,3.03
3598787,Champerico,GT,14.3,-91.9167,29.23,75,86,2.99
3010025,La Ciotat,FR,43.1748,5.6045,14.88,74,36,1.51
3579925,St. George's,GD,12.0564,-61.7485,26.22,75,18,6.96
4031574,Provideniya,RU,64.3833,-173.3,1.06,86,40,8.05
2986626,Plouzané,FR,48.3833,-4.6167,11.58,94,100,4.12
748167,Devrek,TR,41.2192,31.9558,8.31,88,0,1.48
3359638,Walvis Bay,NA,-22.9575,14.5053,19.17,47,99,4.83
2643044,Margate,GB,51.3813,1.3862,12.3,79,98,1.79
1516048,Khovd,MN,48.0056,91.6419,5.2,24,0,2.93
4954611,Watertown,US,42.3709,-71.1828,9.85,53,0,4.12
2027786,Amga,RU,60.8953,131.9608,-0.04,56,100,3.89
779350,Karasjok,NO,69.4719,25.5112,1.76,100,100,1.14
3404513,Cabrobó,BR,-8.5142,-39.31,25.87,61,100,5.78
5354943,Half Moon Bay,US,37.4636,-122.4286,12.81,60,20,12.86
4328010,Houma,US,29.5958,-90.7195,25.08,76,0,3.6
1651810,Airai,TL,-8.9266,125.4092,21.9,56,60,0.46
2146219,Hervey Bay,AU,-25.2986,152.8535,22.23,94,100,1.79
1524606,Derzhavīnsk,KZ,51.1,66.3167,11.01,78,100,7.57
1275738,Bīdar,IN,17.9,77.55,30.26,47,100,2.31
3675504,Manaure,CO,11.7751,-72.4445,25.34,87,100,8.26
2191562,Dunedin,NZ,-45.8742,170.5036,13.27,50,11,1.46
3361934,Saldanha,ZA,-33.0117,17.9442,15.19,94,77,0.7
1249931,Beruwala,LK,6.4788,79.9828,27.79,84,100,8.67
6942800,Kedgwick,CA,47.6446,-67.3434,7.72,70,5,1.12
3458498,Linhares,BR,-19.3911,-40.0722,19.78,94,21,0.83
1805733,Jinchang,CN,38.4953,102.1739,17.64,32,80,0.35
3663495,Manoel Urbano,BR,-8.8389,-69.2597,22.53,99,100,0.42
3405215,Bonfim,BR,3.0833,-59.95,26.42,72,8,2.69
1184249,Attock,PK,33.7695,72.3611,27.09,33,0,1.94
1812256,Dongsheng,CN,39.8161,109.9776,7.9,25,85,7.88
1033356,Nampula,MZ,-15.1165,39.2666,16.4,99,31,1.82
2264557,Ponta do Sol,PT,32.6667,-17.1,20.62,49,0,2.26
3533462,Acapulco de Juárez,MX,16.8634,-99.8901,27.9,74,75,2.06
3421765,Nanortalik,GL,60.1432,-45.2371,1.93,85,87,2.34
921786,Mitsamiouli,KM,-11.3847,43.2844,26.2,68,0,5.21
1633419,Padang,ID,-0.9492,100.3543,26.03,78,100,1.0
933995,Souillac,MU,-20.5167,57.5167,22.21,94,20,2.06
6165406,Thompson,CA,55.7435,-97.8558,10.23,80,100,2.29
2446796,Bilma,NE,18.6853,12.9164,31.59,15,47,3.44
2519234,Coria,ES,39.9879,-6.5377,20.81,51,93,1.44
3495137,Pedernales,DO,18.0384,-71.744,26.02,77,100,1.96
6096551,Pangnirtung,CA,66.1451,-65.7125,-6.54,86,100,3.02
5882953,Aklavik,CA,68.2191,-135.0107,0.12,79,100,6.78
1500399,Lokosovo,RU,61.1333,74.8167,11.55,67,100,4.27
927643,Machinga,MW,-15.1685,35.3,17.75,82,68,0.96
3372760,Praia da Vitória,PT,38.7333,-27.0667,17.09,83,100,6.64
2021980,Klyuchevskiy,RU,53.5317,119.4519,0.63,47,100,5.63
2140558,Koumac,NC,-20.5667,164.2833,27.21,60,47,4.01
2312895,Mbandaka,CD,0.0487,18.2603,22.42,97,100,0.72
986717,Kruisfontein,ZA,-34.0033,24.7314,14.62,74,0,6.77
2121025,Srednekolymsk,RU,67.45,153.6833,-3.9,82,100,2.16
4021858,Guerrero Negro,MX,27.9769,-114.0611,17.27,66,0,10.51
4047434,Russell,US,32.3502,-85.1999,19.25,68,0,0.0
6167817,Torbay,CA,47.6666,-52.7314,5.72,60,0,5.48
2119283,Zyryanka,RU,65.75,150.85,-2.24,92,100,5.5
2214432,Nālūt,LY,30.3333,10.85,16.28,63,33,6.64
1224061,Wattegama,LK,6.7989,81.4808,24.65,84,64,2.38
569318,Cheremshan,RU,54.6667,51.5,8.56,96,100,3.12
3419842,Sisimiut,GL,66.9395,-53.6735,-4.6,72,30,3.95
2092164,Lorengau,PG,-2.0226,147.2712,29.73,69,100,4.56
3665992,Villagarzón,CO,1.0375,-76.6267,22.78,97,79,1.41
295328,Dimona,IL,31.0667,35.0333,15.89,37,5,1.03
1633034,Palu,ID,-0.8917,119.8707,27.89,77,100,0.59
1512342,Almazar,UZ,40.3217,69.0106,19.23,77,96,1.65
1643837,Gorontalo,ID,0.5412,123.0595,25.58,90,100,1.37
2206854,Gisborne,NZ,-38.6533,178.0042,13.45,70,94,7.9
3385935,Tucuruí,BR,-3.7661,-49.6725,23.05,97,100,1.55
556268,Ostrovnoy,RU,68.0531,39.5131,3.43,86,44,7.29
218680,Boende,CD,-0.2167,20.8667,22.04,98,100,0.88
1635815,Maumere,ID,-8.6199,122.2111,28.77,62,40,2.22
2246901,Oussouye,SN,12.485,-16.5469,22.89,77,15,5.71
1805857,Jieshi,CN,22.8134,115.8257,24.41,92,100,3.44
4570634,Bennettsville,US,34.6174,-79.6848,19.28,62,0,2.06
688365,Yasinya,UA,48.2794,24.3604,7.5,92,100,0.67
2392204,Parakou,BJ,9.3372,2.6303,25.1,80,100,2.45
2194098,Ahipara,NZ,-35.1667,173.1667,17.22,42,0,5.49
150689,Poli,TZ,-3.3333,36.8,14.32,96,56,1.15
2176639,Batemans Bay,AU,-35.7167,150.1833,18.28,77,100,2.0
2112539,Iwaki,JP,37.05,140.8833,22.65,77,100,2.03
1847947,Shingū,JP,33.7333,135.9833,16.7,91,100,3.82
527979,Medvedok,RU,57.3891,50.0351,10.01,96,100,4.59
610612,Aktau,KZ,43.65,51.2,11.32,73,15,1.5
3393692,Itarema,BR,-2.9248,-39.9167,24.71,84,100,2.3
608270,Shubarshi,KZ,48.5872,57.1869,4.97,85,26,5.5
2120591,Tilichiki,RU,60.4667,166.1,1.0,99,100,1.86
1805334,Jinxiang,CN,27.4327,120.6062,20.12,92,100,1.25
2634096,Whitehaven,GB,54.549,-3.5841,10.36,95,100,4.92
1149964,U Thong,TH,14.3751,99.8923,28.28,76,84,2.29
2090409,Mount Hagen,PG,-5.8581,144.2274,24.92,40,83,1.03
2912481,Hagenow,DE,53.4333,11.1833,10.72,93,100,1.82
3899361,Arica,CL,-18.475,-70.3042,16.13,77,75,1.54
2334008,Kontagora,NG,10.3999,5.4695,26.69,65,19,1.91
3628473,San Cristobal,VE,7.7669,-72.225,23.1,99,100,1.65
3358666,Aranos,NA,-24.1333,19.1167,14.19,30,100,2.4
6144312,Sept-Îles,CA,50.2001,-66.3821,5.59,76,55,0.45
590447,Karla,EE,59.3723,24.9275,9.98,50,0,4.63
362973,Abnūb,EG,27.2696,31.1511,22.63,25,2,4.21
3401845,Conceição do Araguaia,BR,-8.2578,-49.2647,23.26,72,25,0.81
3641351,El Tigre,VE,8.8875,-64.2454,27.92,53,9,4.11
2122614,Okha,RU,53.5739,142.9478,2.44,90,34,9.21
3421193,Paamiut,GL,61.994,-49.6678,0.6,100,100,2.7
1529376,Korla,CN,41.7597,86.1469,24.36,23,51,4.84
2165087,Gold Coast,AU,-28.0,153.4333,20.94,87,100,9.26
2290836,Boundiali,CI,9.5217,-6.4869,24.98,64,95,2.06
4845585,Westport,US,41.1415,-73.3579,14.11,45,0,4.63
3932145,Pisco,PE,-13.7,-76.2167,18.03,82,75,1.54
826996,Udarnyy,RU,54.3409,42.8611,6.17,97,100,4.88
3522551,Nuevo Laredo,MX,27.4763,-99.5164,33.13,52,75,10.8
4969398,Lewiston,US,44.1003,-70.2148,9.58,56,0,0.0
2012530,Zhigansk,RU,66.7697,123.3711,-1.21,97,99,4.38
645765,Muhos,FI,64.808,25.9931,11.88,85,100,4.8
750268,Bursa,TR,40.1667,29.0833,3.02,82,11,0.25
2311968,Nioki,CD,-2.7167,17.6833,22.66,96,93,1.24
122285,Neyshabur,IR,36.2133,58.7958,15.75,58,0,1.54
3976232,Isla del Bosque,MX,22.7333,-105.85,25.86,66,0,4.06
4017924,Ayutla,MX,20.1167,-104.3333,27.2,40,27,3.59
3522514,Nunkiní,MX,20.3333,-90.1833,29.46,55,6,5.29
5554428,Ketchikan,US,55.3422,-131.6461,5.99,94,100,2.64
2347758,Bara,NG,10.3744,10.7288,26.76,69,18,5.9
2399001,Mayumba,GA,-3.432,10.6554,25.24,92,97,1.76
2145554,Ulladulla,AU,-35.35,150.4667,16.54,76,100,4.24
2315728,Gemena,CD,3.25,19.7667,21.63,95,100,1.41
2137773,Vao,NC,-22.6667,167.4833,22.98,66,0,9.24
1538648,Toktogul,KG,41.8708,72.9402,15.94,86,43,0.47
1701054,Marawi,PH,7.9986,124.2928,25.52,77,93,0.44
212902,Kindu,CD,-2.95,25.95,20.34,94,95,0.79
1513491,Yangi Marg`ilon,UZ,40.4272,71.7189,17.4,77,43,2.06
3131500,Visnes,NO,59.3556,5.2242,9.04,87,75,6.17
299900,Talas,TR,38.6908,35.5538,3.37,75,0,2.57
499025,Samoded,RU,63.6083,40.5111,2.56,83,10,2.36
3030142,Briançon,FR,44.9,6.65,9.94,92,33,0.26
3517970,Pochutla,MX,15.7432,-96.4661,29.34,71,96,1.73
1735799,Sri Aman,MY,1.2376,111.4621,28.99,73,34,0.46
3347019,Mossamedes,AO,-15.1961,12.1522,22.51,66,73,4.25
88834,Tūkrah,LY,32.5341,20.5791,15.48,73,0,3.0
2013279,Vostok,RU,46.4856,135.8833,19.92,22,100,1.45
5919915,Chapleau,CA,47.8405,-83.4034,14.05,94,100,2.57
3386177,Trairi,BR,-3.2778,-39.2689,24.04,86,100,1.2
2610343,Vestmanna,FO,62.1564,-7.1664,7.51,93,75,2.57
5972762,Hay River,CA,60.8156,-115.7999,1.86,61,97,1.99
1728675,Balabac,PH,7.9868,117.0645,28.32,82,79,4.74
2245170,Podor,MR,16.6527,-14.9587,26.69,43,1,5.03
3436199,Azul,AR,-36.777,-59.8585,14.08,90,90,2.66
2017378,Rudnogorsk,RU,57.2639,103.7519,6.53,43,59,1.77
1810240,Gejiu,CN,23.306,103.1635,16.7,81,100,1.87
1623197,Tual,ID,-5.6667,132.75,29.05,74,100,3.52
3792382,Cartagena del Chairá,CO,1.3349,-74.8429,23.32,96,22,1.13
2020313,Mama,RU,58.3106,112.8986,4.2,63,31,1.88
1799722,Nantong,CN,32.0303,120.8747,19.44,84,100,1.79
1653316,Savannakhet,LA,16.566,104.751,29.25,69,91,2.81
654899,Kajaani,FI,64.2273,27.7285,7.03,76,100,6.17
5847486,Kailua,US,21.4022,-157.7394,26.11,69,75,5.66
215976,Ilebo,CD,-4.3167,20.5833,22.3,89,92,0.71
1803300,Liuzhou,CN,24.3126,109.3892,21.53,86,100,2.85
237379,Ndélé,CF,8.4109,20.6473,26.73,51,97,3.25
5919850,Chapais,CA,49.7834,-74.8492,16.23,41,1,4.69
1786855,Yatou,CN,37.15,122.3833,16.15,68,61,3.64
2027296,Aykhal,RU,66.0,111.5,1.44,100,97,9.31
1858301,Kurayoshi,JP,35.4333,133.8167,17.27,92,100,2.34
2015352,Terney,RU,45.0503,136.6092,14.34,48,100,3.42
2121324,Shebunino,RU,46.4339,141.8603,11.38,69,8,4.47
2022463,Khilok,RU,51.3674,110.4676,1.98,47,57,3.64
2012956,Yerbogachën,RU,61.2767,108.0108,7.13,69,25,3.94
2636790,Stornoway,GB,58.2093,-6.3865,7.58,89,75,4.12
2015179,Tommot,RU,58.9564,126.2925,-1.19,83,100,3.2
4219934,Roswell,US,34.0232,-84.3616,20.97,60,0,2.06
3461370,Imbituba,BR,-28.24,-48.6703,21.59,94,100,2.63
3059101,Levice,SK,48.2156,18.6071,11.07,78,17,0.78
2028164,Deputatsky,RU,69.3,139.9,-10.0,77,75,2.14
4791259,Virginia Beach,US,36.8529,-75.978,13.38,76,100,10.8
2415702,Siguiri,GN,11.6667,-9.5,29.64,37,19,1.17
3414079,Olafsvik,IS,64.8945,-23.7142,1.68,95,100,12.02
2374583,Bubaque,GW,11.2833,-15.8333,25.4,73,100,8.65
3698304,Chimbote,PE,-9.0853,-78.5783,17.28,86,5,2.89
6453331,Kristiansund,NO,63.1115,7.732,8.36,81,100,0.0
3991219,Puruándiro,MX,20.0833,-101.5,28.43,20,100,3.46
5520552,Dumas,US,35.8656,-101.9732,19.08,72,100,12.86
6094407,Oromocto,CA,45.8351,-66.4792,7.35,62,2,2.34
3893629,Coquimbo,CL,-29.9533,-71.3436,13.85,100,100,1.54
1529102,Ürümqi,CN,43.801,87.6005,18.53,26,0,3.0
296560,Yozgat Province,TR,39.5833,35.3333,4.96,75,6,1.29
5896969,Beaverlodge,CA,55.2166,-119.4361,9.7,63,97,6.07
1526038,Atbasar,KZ,51.8,68.3333,11.11,84,6,5.1
3904906,Santa Cruz de la Sierra,BO,-17.8,-63.1667,20.7,83,75,3.6
1507390,Dikson,RU,73.5069,80.5464,-1.96,95,100,12.62
1259395,Porbandar,IN,21.6422,69.6093,27.89,79,94,8.56
4696233,Harlingen,US,26.1906,-97.6961,27.85,83,75,8.23
2303611,Esim,GH,4.8699,-2.2405,26.8,86,100,3.33
2034995,Shanhecun,CN,44.7,127.2,7.45,84,100,4.66
3402648,Carutapera,BR,-1.195,-46.02,23.59,94,100,0.78
2965604,Castleisland,IE,52.2333,-9.4667,8.24,93,91,2.96
1633034,Liku,ID,-0.7275,119.8922,26.5,81,100,0.71
486413,Suksun,RU,57.1431,57.3949,9.6,88,100,6.24
2126199,Cherskiy,RU,68.75,161.3,-3.16,82,100,3.2
2346995,Biu,NG,10.6129,12.1946,25.94,55,92,3.99
1244926,Hambantota,LK,6.1241,81.1185,27.76,77,71,9.02
2331939,Lokoja,NG,7.8024,6.743,24.39,88,71,1.32
511785,Pechory,RU,57.8164,27.6119,6.3,69,100,2.92
1799384,Ninghai,CN,29.2892,121.4247,18.5,97,100,1.9
2122605,Okhotsk,RU,59.3833,143.3,0.48,99,100,4.71
3038789,Abbeville,FR,50.1,1.8333,9.92,85,83,2.94
2414659,Tokonou,GN,9.65,-9.7833,23.89,61,47,2.36
1640972,Katobu,ID,-4.9408,122.5276,27.74,82,100,1.05
5019116,Brainerd,US,46.358,-94.2008,20.87,32,0,2.57
1489656,Teya,RU,60.3778,92.6267,5.58,73,3,1.59
2027004,Bayanday,RU,53.0661,105.5139,4.4,42,74,4.65
7647007,Bariloche,AR,-41.1456,-71.3082,2.86,60,0,3.6
3899539,Antofagasta,CL,-23.65,-70.4,15.6,86,30,0.85
2100933,Ambunti,PG,-4.2365,142.8448,31.84,60,53,1.26
3382160,Cayenne,GF,4.9333,-52.3333,27.83,1,75,2.24
3372783,Ponta Delgada,PT,37.7333,-25.6667,17.4,77,75,2.57
2618795,Klaksvík,FO,62.2266,-6.589,8.51,85,4,2.07
6067747,Matagami,CA,49.7502,-77.6328,22.06,21,100,3.6
5850554,Makakilo City,US,21.3469,-158.0858,26.55,58,75,8.23
3118547,Lena,ES,43.1,-5.7333,6.75,74,22,1.23
2629833,Husavik,IS,66.0449,-17.3389,-0.2,96,100,5.18
3150261,Kirkenær,NO,60.4564,12.0582,5.67,96,0,1.91
3855065,General Roca,AR,-39.0333,-67.5833,11.09,34,3,3.26
6533368,Moranbah,AU,-22.0016,148.0466,19.56,90,100,9.97
2019488,Namtsy,RU,62.7161,129.6658,0.41,50,0,3.42
934479,Grand Gaube,MU,-20.0064,57.6608,24.1,80,39,0.45
1168700,Ormara,PK,25.2088,64.6357,27.57,76,0,3.7
1644605,Galesong,ID,-5.3166,119.3661,29.01,79,100,2.43
2738381,Lata,PT,40.1629,-8.3327,12.21,67,6,0.99
3936456,Lima,PE,-12.0432,-77.0282,17.72,78,0,3.6
5859699,College,US,64.8569,-147.8028,4.64,80,75,3.6
1529195,Shihezi,CN,44.3,86.0333,22.37,20,100,1.76
639734,Rauma,FI,61.1272,21.5113,8.02,96,100,7.78
3451474,Riachão do Jacuípe,BR,-11.8069,-39.3856,20.56,92,5,2.39
4014914,Cedral,MX,23.8,-100.7333,20.21,58,100,1.39
1487332,Verkhnyaya Inta,RU,65.9811,60.3094,0.75,84,16,2.07
2027044,Batagay,RU,67.6333,134.6333,-4.35,65,100,2.38
3894426,Coyhaique,CL,-45.5752,-72.0662,4.97,81,0,2.06
5380420,Pacifica,US,37.6138,-122.4869,12.39,68,20,12.86
2269594,Cascais,PT,38.6979,-9.4215,17.86,55,42,4.47
1497406,Nizhnyaya Omka,RU,55.4338,74.9426,10.3,36,100,5.95
2367164,Dapaong,TG,10.8639,0.205,28.79,52,43,2.21
2108857,Gizo Government Station,SB,-8.103,156.8419,28.81,76,100,5.18
3372472,Vila Franca do Campo,PT,37.7167,-25.4333,19.0,92,100,1.77
2229411,Limbe,CM,4.0242,9.2149,26.4,86,100,1.42
6078372,Moose Factory,CA,51.2585,-80.6094,19.99,49,100,4.12
3939761,Hualmay,PE,-11.0964,-77.6139,18.01,83,0,3.32
778707,Mehamn,NO,71.0357,27.8492,2.95,98,100,8.62
5364022,La Palma,US,33.8464,-118.0467,18.04,43,75,8.75
561999,Garbolovo,RU,60.3413,30.4955,6.1,76,37,2.55
2632287,Dalvik,IS,65.9702,-18.5286,0.96,92,100,4.36
1856068,Nago,JP,26.5881,127.9761,25.81,89,100,5.29
945945,Upington,ZA,-28.4478,21.2561,8.21,61,0,1.03
2392087,Porto-Novo,BJ,6.4965,2.6036,27.9,85,68,2.53
2077895,Alice Springs,AU,-23.7,133.8833,16.75,42,0,4.12
102527,Sakakah,SA,29.9697,40.2064,18.76,22,0,2.78
7671223,Kloulklubed,PW,7.0419,134.2556,25.28,87,100,6.04
2109528,Buala,SB,-8.145,159.5921,28.1,79,100,3.0
1489822,Tegul'det,RU,57.3064,88.1667,5.98,43,0,2.31
1254046,Tura,IN,25.5198,90.2201,22.31,94,97,1.84
2520610,Caceres,ES,39.522,-6.3748,19.25,48,35,1.67
6148373,Sioux Lookout,CA,50.1001,-91.917,16.04,36,20,1.54
3931223,Puquio,PE,-14.7,-74.1333,9.04,65,0,1.32
496285,Severodvinsk,RU,64.5635,39.8302,6.06,81,80,4.5
1272259,Duliāgaon,IN,27.3667,95.3167,23.93,94,90,1.42
4032369,Pangai,TO,-19.8,-174.35,27.06,61,75,4.12
777019,Vardø,NO,70.3705,31.1107,2.99,100,100,5.14
2630299,Hofn,IS,64.2539,-15.2082,4.18,60,100,9.42
2206874,Waipawa,NZ,-41.4122,175.5153,10.27,61,100,3.02
2239862,Malanje,AO,-9.5402,16.341,17.54,72,97,1.74
2179103,Whitianga,NZ,-36.8333,175.7,15.17,56,51,5.13
1061335,Mananjary,MG,-21.2167,48.3333,19.58,72,0,2.09
1515029,Ulaangom,MN,49.9811,92.0667,3.34,35,0,2.05
933416,Manyana,BW,-23.4,21.7167,14.22,20,6,2.72
5928065,Cornwall,CA,45.0181,-74.7281,17.56,34,0,4.12
2015852,Svetlaya,RU,46.5389,138.3297,13.82,52,93,2.69
4031637,Lavrentiya,RU,65.5833,-171.0,0.77,97,76,2.44
364027,Wagar,SD,16.1525,36.2032,28.92,17,10,7.32
6145890,Shelburne,CA,44.0787,-80.2041,15.6,65,41,3.64
863061,Usinsk,RU,65.9939,57.5281,-0.09,77,15,3.38
4026082,Lázaro Cárdenas,MX,17.9583,-102.2,26.27,74,2,2.13
3664980,Boa Vista,BR,2.8197,-60.6733,27.99,69,75,2.06
2525392,Capaci,IT,38.1711,13.2393,14.95,73,0,1.54
1254133,Tuensang,IN,26.2833,94.8333,19.81,99,99,0.58
2361177,Djibo,BF,14.1022,-1.6306,30.67,22,57,3.01
2992938,Montbéliard,FR,47.5167,6.8,15.4,88,24,1.36
3336897,La Rioja,ES,42.25,-2.5,9.88,54,27,3.6
2644605,Lerwick,GB,60.1545,-1.1494,9.0,86,100,10.4
3556437,Jagüey Grande,CU,22.5269,-81.1286,24.41,69,0,4.29
2177069,Ballina,AU,-28.8667,153.5667,20.99,73,100,6.49
2662689,Visby,SE,57.6409,18.296,11.12,93,100,8.75
750510,Bolu Province,TR,40.6667,31.5833,8.42,76,85,0.65
4255151,Bud,US,39.447,-86.1758,24.97,78,67,2.86
3381538,Grand-Santi,GF,4.25,-54.3833,22.36,99,73,1.22
1803936,Wuwei,CN,37.9281,102.6414,18.48,35,10,0.88
2068110,Kununurra,AU,-15.7667,128.7333,28.99,37,93,4.63
1648759,Bima,ID,-8.4667,118.7167,28.06,72,100,1.93
1254241,Tonk,IN,26.1667,75.7833,31.41,28,1,1.95
1710519,Isabela,PH,6.7085,121.9711,26.03,93,100,2.61
2253354,Dakar,SN,14.6937,-17.4441,22.49,88,7,6.44
5126209,Mastic Beach,US,40.7668,-72.8521,13.45,35,0,5.36
5894642,Bassano,CA,50.7834,-112.4685,8.53,51,99,1.02
3449350,São Bento do Sul,BR,-26.2503,-49.3786,15.69,97,100,0.51
3440034,Tacuarembó,UY,-31.7333,-55.9833,13.35,95,100,1.99
6050066,La Ronge,CA,55.1001,-105.2842,10.14,43,75,3.6
3496021,Nagua,DO,19.3832,-69.8474,25.13,77,83,2.9
6055388,Little Current,CA,45.9793,-81.9248,11.03,72,100,3.81
5851349,Nānākuli,US,21.3906,-158.1547,27.37,57,75,5.66
1024312,Mocuba,MZ,-16.8392,36.9856,17.19,97,0,0.55
2413419,Gunjur,GM,13.2019,-16.7339,23.04,83,0,5.66
2240449,Luanda,AO,-8.8368,13.2343,25.0,94,75,1.03
4653638,Robertson,US,36.5167,-86.8667,24.41,81,20,1.54
1278539,Annur,IN,11.2333,77.1333,24.23,76,100,1.57
3573374,The Valley,AI,18.217,-63.0578,26.92,80,74,7.81
3351663,Benguela,AO,-12.5763,13.4055,23.85,83,11,0.48
